{"features": [{"geometry": {"coordinates": [4.05, 36.72, 222.0], "type": "Point"}, "properties": {"id": "GHCND:AGE00147708", "name": "TIZI OUZOU, AG"}, "type": "Feature"}, {"geometry": {"coordinates": [-1.85, 35.1, 83.0], "type": "Point"}, "properties": {"id": "GHCND:AGE00147716", "name": "NEMOURS GHAZAOUET, AG"}, "type": "Feature"}, {"geometry": {"coordinates": [5.72, 34.85, 125.0], "type": "Point"}, "properties": {"id": "GHCND:AGE00147718", "name": "BISKRA, AG"}, "type": "Feature"}, {"geometry": {"coordinates": [114.605, -28.7769, 3.0], "type": "Point"}, "properties": {"id": "GHCND:ASN00008050", "name": "GERALDTON TOWN, AS"}, "type": "Feature"}, {"geometry": {"coordinates": [117.8808, -35.0289, 3.0], "type": "Point"}, "properties": {"id": "GHCND:ASN00009500", "name": "ALBANY, AS"}, "type": "Feature"}, {"geometry": {"coordinates": [115.3456, -33.6611, 4.0], "type": "Point"}, "properties": {"id": "GHCND:ASN00009515", "name": "BUSSELTON SHIRE, AS"}, "type": "Feature"}, {"geometry": {"coordinates": [115.8747, -32.6272, 12.0], "type": "Point"}, "properties": {"id": "GHCND:ASN00009596", "name": "PINJARRA, AS"}, "type": "Feature"}, {"geometry": {"coordinates": [116.6586, -31.6508, 170.0], "type": "Point"}, "properties": {"id": "GHCND:ASN00010111", "name": "NORTHAM, AS"}, "type": "Feature"}, {"geometry": {"coordinates": [116.4594, -31.5453, 140.0], "type": "Point"}, "properties": {"id": "GHCND:ASN00010125", "name": "TOODYAY, AS"}, "type": "Feature"}, {"geometry": {"coordinates": [128.8792, -31.6797, 93.1], "type": "Point"}, "properties": {"id": "GHCND:ASN00011003", "name": "EUCLA, AS"}, "type": "Feature"}, {"geometry": {"coordinates": [133.37, -16.253, 211.8], "type": "Point"}, "properties": {"id": "GHCND:ASN00014618", "name": "DALY WATERS, AS"}, "type": "Feature"}, {"geometry": {"coordinates": [132.2572, -14.4589, 106.9], "type": "Point"}, "properties": {"id": "GHCND:ASN00014902", "name": "KATHERINE COUNCIL, AS"}, "type": "Feature"}, {"geometry": {"coordinates": [131.8372, -13.8241, 189.0], "type": "Point"}, "properties": {"id": "GHCND:ASN00014933", "name": "PINE CREEK, AS"}, "type": "Feature"}, {"geometry": {"coordinates": [133.8901, -21.5317, 510.5], "type": "Point"}, "properties": {"id": "GHCND:ASN00015525", "name": "BARROW CREEK, AS"}, "type": "Feature"}, {"geometry": {"coordinates": [137.0382, -31.6611, 134.0], "type": "Point"}, "properties": {"id": "GHCND:ASN00016033", "name": "WOOMERA OAKDEN HILLS, AS"}, "type": "Feature"}, {"geometry": {"coordinates": [135.5247, -32.3792, 260.0], "type": "Point"}, "properties": {"id": "GHCND:ASN00016055", "name": "YARDEA, AS"}, "type": "Feature"}, {"geometry": {"coordinates": [138.3822, -30.8246, 230.0], "type": "Point"}, "properties": {"id": "GHCND:ASN00017012", "name": "BELTANA STATION, AS"}, "type": "Feature"}, {"geometry": {"coordinates": [138.6786, -31.0939, 615.7], "type": "Point"}, "properties": {"id": "GHCND:ASN00017014", "name": "BLINMAN, AS"}, "type": "Feature"}, {"geometry": {"coordinates": [138.2739, -30.066, 91.0], "type": "Point"}, "properties": {"id": "GHCND:ASN00017024", "name": "MARREE FARINA, AS"}, "type": "Feature"}, {"geometry": {"coordinates": [136.3386, -28.9062, 74.0], "type": "Point"}, "properties": {"id": "GHCND:ASN00017053", "name": "WILLIAM CREEK, AS"}, "type": "Feature"}, {"geometry": {"coordinates": [138.9618, -31.1278, 255.0], "type": "Point"}, "properties": {"id": "GHCND:ASN00017054", "name": "BLINMAN WIRREALPA, AS"}, "type": "Feature"}, {"geometry": {"coordinates": [139.4198, -30.4132, 135.0], "type": "Point"}, "properties": {"id": "GHCND:ASN00017056", "name": "GAMMON RANGES WOOLTANA, AS"}, "type": "Feature"}, {"geometry": {"coordinates": [135.4697, -34.3853, 75.0], "type": "Point"}, "properties": {"id": "GHCND:ASN00018019", "name": "COULTA, AS"}, "type": "Feature"}, {"geometry": {"coordinates": [135.2682, -33.9534, 8.0], "type": "Point"}, "properties": {"id": "GHCND:ASN00018045", "name": "SHERINGA LAKE HAMILTON, AS"}, "type": "Feature"}, {"geometry": {"coordinates": [134.2116, -32.7963, 13.0], "type": "Point"}, "properties": {"id": "GHCND:ASN00018079", "name": "STREAKY BAY, AS"}, "type": "Feature"}, {"geometry": {"coordinates": [136.2092, -34.2617, 45.0], "type": "Point"}, "properties": {"id": "GHCND:ASN00018091", "name": "TUMBY BAY WARRATTA VALE, AS"}, "type": "Feature"}, {"geometry": {"coordinates": [138.6907, -32.8247, 428.0], "type": "Point"}, "properties": {"id": "GHCND:ASN00019005", "name": "ORROROO BLACK ROCK, AS"}, "type": "Feature"}, {"geometry": {"coordinates": [138.8372, -31.8777, 495.0], "type": "Point"}, "properties": {"id": "GHCND:ASN00019018", "name": "HAWKER HOLOWILENA, AS"}, "type": "Feature"}, {"geometry": {"coordinates": [138.1907, -32.8294, 386.0], "type": "Point"}, "properties": {"id": "GHCND:ASN00019024", "name": "MELROSE, AS"}, "type": "Feature"}, {"geometry": {"coordinates": [138.6135, -32.7335, 428.0], "type": "Point"}, "properties": {"id": "GHCND:ASN00019032", "name": "ORROROO, AS"}, "type": "Feature"}, {"geometry": {"coordinates": [138.6529, -31.775, 490.0], "type": "Point"}, "properties": {"id": "GHCND:ASN00019046", "name": "HAWKER WARCOWIE, AS"}, "type": "Feature"}, {"geometry": {"coordinates": [138.1003, -32.6521, 330.0], "type": "Point"}, "properties": {"id": "GHCND:ASN00019048", "name": "WILMINGTON, AS"}, "type": "Feature"}, {"geometry": {"coordinates": [138.2686, -33.0338, 330.0], "type": "Point"}, "properties": {"id": "GHCND:ASN00019052", "name": "WIRRABARA, AS"}, "type": "Feature"}, {"geometry": {"coordinates": [138.2211, -33.0856, 380.0], "type": "Point"}, "properties": {"id": "GHCND:ASN00019053", "name": "WIRRABARA FOREST, AS"}, "type": "Feature"}, {"geometry": {"coordinates": [138.4922, -33.7321, 270.0], "type": "Point"}, "properties": {"id": "GHCND:ASN00021000", "name": "BRINKWORTH ANAMA PARK, AS"}, "type": "Feature"}, {"geometry": {"coordinates": [138.6846, -34.026, 310.0], "type": "Point"}, "properties": {"id": "GHCND:ASN00021001", "name": "AUBURN, AS"}, "type": "Feature"}, {"geometry": {"coordinates": [138.5628, -33.7459, 368.0], "type": "Point"}, "properties": {"id": "GHCND:ASN00021010", "name": "BRINKWORTH BUNGAREE, AS"}, "type": "Feature"}, {"geometry": {"coordinates": [138.4968, -33.1851, 382.0], "type": "Point"}, "properties": {"id": "GHCND:ASN00021013", "name": "CALTOWIE, AS"}, "type": "Feature"}, {"geometry": {"coordinates": [138.2927, -33.7045, 103.0], "type": "Point"}, "properties": {"id": "GHCND:ASN00021015", "name": "SNOWTOWN CONDOWIE, AS"}, "type": "Feature"}, {"geometry": {"coordinates": [138.393, -33.359, 273.0], "type": "Point"}, "properties": {"id": "GHCND:ASN00021020", "name": "GEORGETOWN, AS"}, "type": "Feature"}, {"geometry": {"coordinates": [138.357, -33.2705, 226.0], "type": "Point"}, "properties": {"id": "GHCND:ASN00021021", "name": "GLADSTONE, AS"}, "type": "Feature"}, {"geometry": {"coordinates": [138.6059, -33.2036, 455.0], "type": "Point"}, "properties": {"id": "GHCND:ASN00021027", "name": "JAMESTOWN, AS"}, "type": "Feature"}, {"geometry": {"coordinates": [138.3001, -33.1851, 248.0], "type": "Point"}, "properties": {"id": "GHCND:ASN00021031", "name": "LAURA, AS"}, "type": "Feature"}, {"geometry": {"coordinates": [138.0104, -33.1708, 4.0], "type": "Point"}, "properties": {"id": "GHCND:ASN00021043", "name": "PORT PIRIE NYRSTAR COMPARISON, AS"}, "type": "Feature"}, {"geometry": {"coordinates": [138.1478, -34.1848, 4.0], "type": "Point"}, "properties": {"id": "GHCND:ASN00021044", "name": "PORT WAKEFIELD, AS"}, "type": "Feature"}, {"geometry": {"coordinates": [138.8844, -33.2296, 518.0], "type": "Point"}, "properties": {"id": "GHCND:ASN00021055", "name": "WHYTE YARCOWIE, AS"}, "type": "Feature"}, {"geometry": {"coordinates": [137.6733, -34.3745, 185.0], "type": "Point"}, "properties": {"id": "GHCND:ASN00022008", "name": "MAITLAND, AS"}, "type": "Feature"}, {"geometry": {"coordinates": [137.5925, -34.0672, 20.0], "type": "Point"}, "properties": {"id": "GHCND:ASN00022011", "name": "MOONTA, AS"}, "type": "Feature"}, {"geometry": {"coordinates": [137.4836, -34.4951, 10.0], "type": "Point"}, "properties": {"id": "GHCND:ASN00022013", "name": "PORT VICTORIA, AS"}, "type": "Feature"}, {"geometry": {"coordinates": [137.7977, -34.9122, 5.0], "type": "Point"}, "properties": {"id": "GHCND:ASN00022017", "name": "STANSBURY, AS"}, "type": "Feature"}, {"geometry": {"coordinates": [137.3995, -34.9906, 53.0], "type": "Point"}, "properties": {"id": "GHCND:ASN00022018", "name": "WAROOKA, AS"}, "type": "Feature"}, {"geometry": {"coordinates": [137.6282, -33.9323, 10.0], "type": "Point"}, "properties": {"id": "GHCND:ASN00022020", "name": "WALLAROO, AS"}, "type": "Feature"}, {"geometry": {"coordinates": [138.0146, -34.1447, 118.0], "type": "Point"}, "properties": {"id": "GHCND:ASN00022022", "name": "PORT CLINTON YARAROO, AS"}, "type": "Feature"}, {"geometry": {"coordinates": [137.6364, -35.6569, 20.0], "type": "Point"}, "properties": {"id": "GHCND:ASN00022807", "name": "KINGSCOTE, AS"}, "type": "Feature"}, {"geometry": {"coordinates": [138.5869, -34.9254, 40.0], "type": "Point"}, "properties": {"id": "GHCND:ASN00023000", "name": "ADELAIDE WEST TERRACE, AS"}, "type": "Feature"}, {"geometry": {"coordinates": [138.6434, -34.7674, 32.0], "type": "Point"}, "properties": {"id": "GHCND:ASN00023023", "name": "ADELAIDE SALISBURY BOWLING CL, AS"}, "type": "Feature"}, {"geometry": {"coordinates": [138.6124, -34.8321, 21.0], "type": "Point"}, "properties": {"id": "GHCND:ASN00023026", "name": "ADELAIDE POORAKA, AS"}, "type": "Feature"}, {"geometry": {"coordinates": [138.7393, -34.5915, 49.0], "type": "Point"}, "properties": {"id": "GHCND:ASN00023078", "name": "GAWLER COUNCIL DEPOT, AS"}, "type": "Feature"}, {"geometry": {"coordinates": [138.9155, -34.3412, 245.0], "type": "Point"}, "properties": {"id": "GHCND:ASN00023307", "name": "KAPUNDA, AS"}, "type": "Feature"}, {"geometry": {"coordinates": [138.7483, -34.158, 265.0], "type": "Point"}, "properties": {"id": "GHCND:ASN00023314", "name": "RIVERTON, AS"}, "type": "Feature"}, {"geometry": {"coordinates": [138.7815, -34.0844, 325.0], "type": "Point"}, "properties": {"id": "GHCND:ASN00023315", "name": "SADDLEWORTH, AS"}, "type": "Feature"}, {"geometry": {"coordinates": [138.9598, -34.5169, 250.0], "type": "Point"}, "properties": {"id": "GHCND:ASN00023318", "name": "TANUNDA, AS"}, "type": "Feature"}, {"geometry": {"coordinates": [138.6256, -35.1087, 190.0], "type": "Point"}, "properties": {"id": "GHCND:ASN00023710", "name": "CLARENDON, AS"}, "type": "Feature"}, {"geometry": {"coordinates": [138.7638, -35.4987, 5.0], "type": "Point"}, "properties": {"id": "GHCND:ASN00023718", "name": "GOOLWA COUNCIL DEPOT, AS"}, "type": "Feature"}, {"geometry": {"coordinates": [138.8859, -34.8237, 339.0], "type": "Point"}, "properties": {"id": "GHCND:ASN00023719", "name": "GUMERACHA, AS"}, "type": "Feature"}, {"geometry": {"coordinates": [138.5647, -35.0608, 170.0], "type": "Point"}, "properties": {"id": "GHCND:ASN00023721", "name": "HAPPY VALLEY RESERVOIR, AS"}, "type": "Feature"}, {"geometry": {"coordinates": [139.0036, -35.0739, 195.0], "type": "Point"}, "properties": {"id": "GHCND:ASN00023724", "name": "KANMANTOO, AS"}, "type": "Feature"}, {"geometry": {"coordinates": [138.8509, -35.0639, 360.0], "type": "Point"}, "properties": {"id": "GHCND:ASN00023733", "name": "MOUNT BARKER, AS"}, "type": "Feature"}, {"geometry": {"coordinates": [139.0501, -34.7735, 430.0], "type": "Point"}, "properties": {"id": "GHCND:ASN00023737", "name": "MOUNT PLEASANT, AS"}, "type": "Feature"}, {"geometry": {"coordinates": [138.3227, -35.4519, 15.0], "type": "Point"}, "properties": {"id": "GHCND:ASN00023741", "name": "NORMANVILLE, AS"}, "type": "Feature"}, {"geometry": {"coordinates": [138.6896, -35.5299, 10.0], "type": "Point"}, "properties": {"id": "GHCND:ASN00023742", "name": "PORT ELLIOT CARAVAN PARK, AS"}, "type": "Feature"}, {"geometry": {"coordinates": [138.8901, -35.256, 70.0], "type": "Point"}, "properties": {"id": "GHCND:ASN00023747", "name": "STRATHALBYN, AS"}, "type": "Feature"}, {"geometry": {"coordinates": [138.5591, -35.2705, 104.0], "type": "Point"}, "properties": {"id": "GHCND:ASN00023753", "name": "WILLUNGA, AS"}, "type": "Feature"}, {"geometry": {"coordinates": [140.3256, -34.1479, 59.0], "type": "Point"}, "properties": {"id": "GHCND:ASN00024012", "name": "OVERLAND CORNER, AS"}, "type": "Feature"}, {"geometry": {"coordinates": [139.301, -34.9145, 40.0], "type": "Point"}, "properties": {"id": "GHCND:ASN00024517", "name": "MANNUM COUNCIL DEPOT, AS"}, "type": "Feature"}, {"geometry": {"coordinates": [139.3375, -35.6902, 3.0], "type": "Point"}, "properties": {"id": "GHCND:ASN00024518", "name": "MENINGIE, AS"}, "type": "Feature"}, {"geometry": {"coordinates": [139.8526, -36.8309, 7.0], "type": "Point"}, "properties": {"id": "GHCND:ASN00026012", "name": "KINGSTON SE, AS"}, "type": "Feature"}, {"geometry": {"coordinates": [140.3664, -36.9731, 30.0], "type": "Point"}, "properties": {"id": "GHCND:ASN00026016", "name": "LUCINDALE POST OFFICE, AS"}, "type": "Feature"}, {"geometry": {"coordinates": [140.3426, -37.5872, 20.0], "type": "Point"}, "properties": {"id": "GHCND:ASN00026018", "name": "MILLICENT, AS"}, "type": "Feature"}, {"geometry": {"coordinates": [140.7833, -37.8333, 65.0], "type": "Point"}, "properties": {"id": "GHCND:ASN00026020", "name": "MOUNT GAMBIER POST OFFICE, AS"}, "type": "Feature"}, {"geometry": {"coordinates": [140.8379, -37.3803, 62.0], "type": "Point"}, "properties": {"id": "GHCND:ASN00026025", "name": "PENOLA POST OFFICE, AS"}, "type": "Feature"}, {"geometry": {"coordinates": [139.756, -37.1628, 3.3], "type": "Point"}, "properties": {"id": "GHCND:ASN00026026", "name": "ROBE COMPARISON, AS"}, "type": "Feature"}, {"geometry": {"coordinates": [144.3183, -18.1472, 462.0], "type": "Point"}, "properties": {"id": "GHCND:ASN00030036", "name": "MOUNT SURPRISE TOWNSHIP, AS"}, "type": "Feature"}, {"geometry": {"coordinates": [146.0197, -18.2553, 4.5], "type": "Point"}, "properties": {"id": "GHCND:ASN00032004", "name": "CARDWELL MARINE PDE, AS"}, "type": "Feature"}, {"geometry": {"coordinates": [148.6881, -21.6889, 195.0], "type": "Point"}, "properties": {"id": "GHCND:ASN00033054", "name": "NEBO, AS"}, "type": "Feature"}, {"geometry": {"coordinates": [146.8892, -20.0997, 247.0], "type": "Point"}, "properties": {"id": "GHCND:ASN00033062", "name": "RAVENSWOOD POST OFFICE, AS"}, "type": "Feature"}, {"geometry": {"coordinates": [149.5356, -22.3458, 17.8], "type": "Point"}, "properties": {"id": "GHCND:ASN00033065", "name": "ST LAWRENCE POST OFFICE, AS"}, "type": "Feature"}, {"geometry": {"coordinates": [147.6425, -22.8239, 260.0], "type": "Point"}, "properties": {"id": "GHCND:ASN00035019", "name": "CLERMONT SIRIUS ST, AS"}, "type": "Feature"}, {"geometry": {"coordinates": [145.7869, -24.5608, 317.0], "type": "Point"}, "properties": {"id": "GHCND:ASN00035049", "name": "GILLESPIE, AS"}, "type": "Feature"}, {"geometry": {"coordinates": [148.0856, -24.123, 344.5], "type": "Point"}, "properties": {"id": "GHCND:ASN00035065", "name": "SPRINGSURE COMET ST, AS"}, "type": "Feature"}, {"geometry": {"coordinates": [146.2564, -24.8819, 395.1], "type": "Point"}, "properties": {"id": "GHCND:ASN00035069", "name": "TAMBO POST OFFICE, AS"}, "type": "Feature"}, {"geometry": {"coordinates": [149.7958, -25.6408, 199.0], "type": "Point"}, "properties": {"id": "GHCND:ASN00035070", "name": "TAROOM POST OFFICE, AS"}, "type": "Feature"}, {"geometry": {"coordinates": [145.2269, -25.2011, 338.0], "type": "Point"}, "properties": {"id": "GHCND:ASN00036137", "name": "LISTOWEL DOWNS, AS"}, "type": "Feature"}, {"geometry": {"coordinates": [150.1292, -24.4719, 152.0], "type": "Point"}, "properties": {"id": "GHCND:ASN00039003", "name": "BANANA POST OFFICE, AS"}, "type": "Feature"}, {"geometry": {"coordinates": [150.4342, -25.0303, 352.0], "type": "Point"}, "properties": {"id": "GHCND:ASN00039022", "name": "CAMBOON STATION, AS"}, "type": "Feature"}, {"geometry": {"coordinates": [151.6094, -25.6258, 105.7], "type": "Point"}, "properties": {"id": "GHCND:ASN00039039", "name": "GAYNDAH POST OFFICE, AS"}, "type": "Feature"}, {"geometry": {"coordinates": [152.6414, -26.1831, 64.5], "type": "Point"}, "properties": {"id": "GHCND:ASN00040093", "name": "GYMPIE, AS"}, "type": "Feature"}, {"geometry": {"coordinates": [152.1246, -27.5504, 155.0], "type": "Point"}, "properties": {"id": "GHCND:ASN00040096", "name": "HELIDON POST OFFICE, AS"}, "type": "Feature"}, {"geometry": {"coordinates": [152.7156, -25.5161, 10.3], "type": "Point"}, "properties": {"id": "GHCND:ASN00040126", "name": "MARYBOROUGH, AS"}, "type": "Feature"}, {"geometry": {"coordinates": [151.2869, -27.7233, 370.0], "type": "Point"}, "properties": {"id": "GHCND:ASN00041019", "name": "CONDAMINE PLAINS, AS"}, "type": "Feature"}, {"geometry": {"coordinates": [151.9339, -28.6617, 787.0], "type": "Point"}, "properties": {"id": "GHCND:ASN00041095", "name": "STANTHORPE LESLIE PARADE, AS"}, "type": "Feature"}, {"geometry": {"coordinates": [144.7392, -27.1383, 218.0], "type": "Point"}, "properties": {"id": "GHCND:ASN00044004", "name": "BEECHAL, AS"}, "type": "Feature"}, {"geometry": {"coordinates": [145.6808, -28.0706, 188.7], "type": "Point"}, "properties": {"id": "GHCND:ASN00044026", "name": "CUNNAMULLA POST OFFICE, AS"}, "type": "Feature"}, {"geometry": {"coordinates": [144.3586, -28.0911, 138.0], "type": "Point"}, "properties": {"id": "GHCND:ASN00044031", "name": "DYNEVOR DOWNS, AS"}, "type": "Feature"}, {"geometry": {"coordinates": [143.6548, -31.4469, 83.0], "type": "Point"}, "properties": {"id": "GHCND:ASN00046022", "name": "WILCANNIA MOUNT MURCHISON, AS"}, "type": "Feature"}, {"geometry": {"coordinates": [143.0378, -31.0225, 130.0], "type": "Point"}, "properties": {"id": "GHCND:ASN00046034", "name": "WHITE CLIFFS TARELLA, AS"}, "type": "Feature"}, {"geometry": {"coordinates": [143.3747, -31.5631, 75.0], "type": "Point"}, "properties": {"id": "GHCND:ASN00046043", "name": "WILCANNIA REID ST, AS"}, "type": "Feature"}, {"geometry": {"coordinates": [143.3698, -32.5277, 64.0], "type": "Point"}, "properties": {"id": "GHCND:ASN00047000", "name": "GUM LAKE ALBEMARLE, AS"}, "type": "Feature"}, {"geometry": {"coordinates": [142.4173, -32.3937, 61.0], "type": "Point"}, "properties": {"id": "GHCND:ASN00047019", "name": "MENINDEE POST OFFICE, AS"}, "type": "Feature"}, {"geometry": {"coordinates": [142.5719, -33.4268, 48.0], "type": "Point"}, "properties": {"id": "GHCND:ASN00047033", "name": "POONCARIE TARCOOLA, AS"}, "type": "Feature"}, {"geometry": {"coordinates": [141.9189, -34.1065, 37.0], "type": "Point"}, "properties": {"id": "GHCND:ASN00047053", "name": "WENTWORTH POST OFFICE, AS"}, "type": "Feature"}, {"geometry": {"coordinates": [142.2205, -33.7492, 42.0], "type": "Point"}, "properties": {"id": "GHCND:ASN00047093", "name": "WENTWORTH BURTUNDY, AS"}, "type": "Feature"}, {"geometry": {"coordinates": [147.3128, -29.0299, 143.0], "type": "Point"}, "properties": {"id": "GHCND:ASN00048014", "name": "GOODOOGA BRENDA, AS"}, "type": "Feature"}, {"geometry": {"coordinates": [146.8651, -29.9614, 115.0], "type": "Point"}, "properties": {"id": "GHCND:ASN00048015", "name": "BREWARRINA HOSPITAL, AS"}, "type": "Feature"}, {"geometry": {"coordinates": [143.561, -34.6398, 61.0], "type": "Point"}, "properties": {"id": "GHCND:ASN00049002", "name": "BALRANALD RSL, AS"}, "type": "Feature"}, {"geometry": {"coordinates": [143.9375, -33.4021, 77.0], "type": "Point"}, "properties": {"id": "GHCND:ASN00049008", "name": "HATFIELD CLARE, AS"}, "type": "Feature"}, {"geometry": {"coordinates": [144.0175, -33.7272, 81.0], "type": "Point"}, "properties": {"id": "GHCND:ASN00049049", "name": "HATFIELD BENILKIE, AS"}, "type": "Feature"}, {"geometry": {"coordinates": [148.3806, -30.9753, 180.0], "type": "Point"}, "properties": {"id": "GHCND:ASN00051010", "name": "COONAMBLE COMPARISON, AS"}, "type": "Feature"}, {"geometry": {"coordinates": [147.8824, -31.457, 186.0], "type": "Point"}, "properties": {"id": "GHCND:ASN00051025", "name": "WARREN HADDON RIG, AS"}, "type": "Feature"}, {"geometry": {"coordinates": [147.1961, -31.5495, 173.0], "type": "Point"}, "properties": {"id": "GHCND:ASN00051039", "name": "NYNGAN AIRPORT, AS"}, "type": "Feature"}, {"geometry": {"coordinates": [148.1218, -30.0236, 133.0], "type": "Point"}, "properties": {"id": "GHCND:ASN00052026", "name": "WALGETT COUNCIL DEPOT, AS"}, "type": "Feature"}, {"geometry": {"coordinates": [150.5754, -29.5416, 320.0], "type": "Point"}, "properties": {"id": "GHCND:ASN00054029", "name": "WARIALDA POST OFFICE, AS"}, "type": "Feature"}, {"geometry": {"coordinates": [149.782, -30.3222, 213.0], "type": "Point"}, "properties": {"id": "GHCND:ASN00054120", "name": "NARRABRI BOWLING CLUB, AS"}, "type": "Feature"}, {"geometry": {"coordinates": [151.1533, -30.8855, 819.0], "type": "Point"}, "properties": {"id": "GHCND:ASN00055004", "name": "BENDEMEER CAROLINE ST, AS"}, "type": "Feature"}, {"geometry": {"coordinates": [150.254, -30.9841, 285.0], "type": "Point"}, "properties": {"id": "GHCND:ASN00055023", "name": "GUNNEDAH POOL, AS"}, "type": "Feature"}, {"geometry": {"coordinates": [150.9069, -31.3038, 442.0], "type": "Point"}, "properties": {"id": "GHCND:ASN00055067", "name": "GOONOO GOONOO STATION, AS"}, "type": "Feature"}, {"geometry": {"coordinates": [151.5105, -30.7338, 1018.0], "type": "Point"}, "properties": {"id": "GHCND:ASN00056028", "name": "URALLA SALISBURY COURT, AS"}, "type": "Feature"}, {"geometry": {"coordinates": [151.4791, -29.4558, 735.0], "type": "Point"}, "properties": {"id": "GHCND:ASN00056029", "name": "EMMAVILLE STRATHBOGIE, AS"}, "type": "Feature"}, {"geometry": {"coordinates": [152.0172, -29.0479, 838.0], "type": "Point"}, "properties": {"id": "GHCND:ASN00056032", "name": "TENTERFIELD FEDERATION PARK, AS"}, "type": "Feature"}, {"geometry": {"coordinates": [151.9909, -28.5417, 870.0], "type": "Point"}, "properties": {"id": "GHCND:ASN00056207", "name": "MARYLAND, AS"}, "type": "Feature"}, {"geometry": {"coordinates": [153.3633, -29.4333, 27.4], "type": "Point"}, "properties": {"id": "GHCND:ASN00058012", "name": "YAMBA PILOT STATION, AS"}, "type": "Feature"}, {"geometry": {"coordinates": [153.0493, -28.8755, 26.0], "type": "Point"}, "properties": {"id": "GHCND:ASN00058063", "name": "CASINO AIRPORT, AS"}, "type": "Feature"}, {"geometry": {"coordinates": [152.911, -31.4399, 20.0], "type": "Point"}, "properties": {"id": "GHCND:ASN00060026", "name": "PORT MACQUARIE BELLEVUE GARDE, AS"}, "type": "Feature"}, {"geometry": {"coordinates": [151.4173, -32.6385, 40.0], "type": "Point"}, "properties": {"id": "GHCND:ASN00061014", "name": "BRANXTON DALWOOD VINEYARD, AS"}, "type": "Feature"}, {"geometry": {"coordinates": [150.8363, -31.7651, 466.0], "type": "Point"}, "properties": {"id": "GHCND:ASN00061051", "name": "MURRURUNDI POST OFFICE, AS"}, "type": "Feature"}, {"geometry": {"coordinates": [150.8847, -32.2611, 143.0], "type": "Point"}, "properties": {"id": "GHCND:ASN00061053", "name": "MUSWELLBROOK LOWER HILL ST, AS"}, "type": "Feature"}, {"geometry": {"coordinates": [151.7985, -32.9185, 33.0], "type": "Point"}, "properties": {"id": "GHCND:ASN00061055", "name": "NEWCASTLE NOBBYS SIGNAL STATIO, AS"}, "type": "Feature"}, {"geometry": {"coordinates": [149.9815, -32.0051, 395.0], "type": "Point"}, "properties": {"id": "GHCND:ASN00062005", "name": "CASSILIS POST OFFICE, AS"}, "type": "Feature"}, {"geometry": {"coordinates": [149.9856, -31.9963, 420.0], "type": "Point"}, "properties": {"id": "GHCND:ASN00062009", "name": "CASSILIS DALKEITH, AS"}, "type": "Feature"}, {"geometry": {"coordinates": [149.5956, -32.5956, 454.0], "type": "Point"}, "properties": {"id": "GHCND:ASN00062021", "name": "MUDGEE GEORGE STREET, AS"}, "type": "Feature"}, {"geometry": {"coordinates": [150.6338, -33.5343, 460.0], "type": "Point"}, "properties": {"id": "GHCND:ASN00063043", "name": "KURRAJONG HEIGHTS BELLS LINE, AS"}, "type": "Feature"}, {"geometry": {"coordinates": [150.1303, -33.4769, 900.0], "type": "Point"}, "properties": {"id": "GHCND:ASN00063226", "name": "LITHGOW COOERWULL, AS"}, "type": "Feature"}, {"geometry": {"coordinates": [149.2558, -31.7231, 375.0], "type": "Point"}, "properties": {"id": "GHCND:ASN00064007", "name": "NEILREX CAIGAN, AS"}, "type": "Feature"}, {"geometry": {"coordinates": [149.2714, -31.2712, 505.0], "type": "Point"}, "properties": {"id": "GHCND:ASN00064008", "name": "COONABARABRAN NAMOI STREET, AS"}, "type": "Feature"}, {"geometry": {"coordinates": [151.205, -33.8607, 39.0], "type": "Point"}, "properties": {"id": "GHCND:ASN00066062", "name": "SYDNEY OBSERVATORY HILL, AS"}, "type": "Feature"}, {"geometry": {"coordinates": [150.725, -33.9696, 122.0], "type": "Point"}, "properties": {"id": "GHCND:ASN00067015", "name": "BRINGELLY MARYLAND, AS"}, "type": "Feature"}, {"geometry": {"coordinates": [150.3768, -34.5444, 675.0], "type": "Point"}, "properties": {"id": "GHCND:ASN00068045", "name": "MOSS VALE HOSKINS STREET, AS"}, "type": "Feature"}, {"geometry": {"coordinates": [150.6145, -34.1685, 165.0], "type": "Point"}, "properties": {"id": "GHCND:ASN00068052", "name": "PICTON COUNCIL DEPOT, AS"}, "type": "Feature"}, {"geometry": {"coordinates": [149.838, -36.6884, 50.0], "type": "Point"}, "properties": {"id": "GHCND:ASN00069002", "name": "BEGA NEWTOWN ROAD, AS"}, "type": "Feature"}, {"geometry": {"coordinates": [149.9053, -37.0557, 9.0], "type": "Point"}, "properties": {"id": "GHCND:ASN00069015", "name": "EDEN CARAVAN PARK, AS"}, "type": "Feature"}, {"geometry": {"coordinates": [150.4357, -35.3156, 76.0], "type": "Point"}, "properties": {"id": "GHCND:ASN00069016", "name": "MILTON POST OFFICE, AS"}, "type": "Feature"}, {"geometry": {"coordinates": [150.1532, -35.9093, 17.0], "type": "Point"}, "properties": {"id": "GHCND:ASN00069018", "name": "MORUYA HEADS PILOT STATION, AS"}, "type": "Feature"}, {"geometry": {"coordinates": [150.0508, -36.0876, 42.0], "type": "Point"}, "properties": {"id": "GHCND:ASN00069036", "name": "BODALLA POST OFFICE, AS"}, "type": "Feature"}, {"geometry": {"coordinates": [149.1972, -36.7969, 785.0], "type": "Point"}, "properties": {"id": "GHCND:ASN00070009", "name": "BUKALONG STATION, AS"}, "type": "Feature"}, {"geometry": {"coordinates": [149.2292, -35.3552, 580.0], "type": "Point"}, "properties": {"id": "GHCND:ASN00070072", "name": "QUEANBEYAN BOWLING CLUB, AS"}, "type": "Feature"}, {"geometry": {"coordinates": [149.6245, -34.545, 855.0], "type": "Point"}, "properties": {"id": "GHCND:ASN00070131", "name": "WOODHOUSELEE LEESTON, AS"}, "type": "Feature"}, {"geometry": {"coordinates": [147.7362, -35.2765, 232.0], "type": "Point"}, "properties": {"id": "GHCND:ASN00072042", "name": "TARCUTTA POST OFFICE, AS"}, "type": "Feature"}, {"geometry": {"coordinates": [147.533, -34.444, 285.0], "type": "Point"}, "properties": {"id": "GHCND:ASN00073037", "name": "TEMORA AMBULANCE STATION, AS"}, "type": "Feature"}, {"geometry": {"coordinates": [147.7767, -35.0996, 197.0], "type": "Point"}, "properties": {"id": "GHCND:ASN00073055", "name": "MUNDARLO YABTREE, AS"}, "type": "Feature"}, {"geometry": {"coordinates": [146.5714, -34.2849, 158.0], "type": "Point"}, "properties": {"id": "GHCND:ASN00074005", "name": "BARELLAN POST OFFICE, AS"}, "type": "Feature"}, {"geometry": {"coordinates": [145.8126, -35.6577, 119.0], "type": "Point"}, "properties": {"id": "GHCND:ASN00074009", "name": "BERRIGAN POST OFFICE, AS"}, "type": "Feature"}, {"geometry": {"coordinates": [146.31, -35.3526, 120.0], "type": "Point"}, "properties": {"id": "GHCND:ASN00074026", "name": "URANA BUTHERWAH, AS"}, "type": "Feature"}, {"geometry": {"coordinates": [146.2652, -35.3305, 125.0], "type": "Point"}, "properties": {"id": "GHCND:ASN00074110", "name": "URANA POST OFFICE, AS"}, "type": "Feature"}, {"geometry": {"coordinates": [144.952, -35.5269, 93.0], "type": "Point"}, "properties": {"id": "GHCND:ASN00074128", "name": "DENILIQUIN WILKINSON ST, AS"}, "type": "Feature"}, {"geometry": {"coordinates": [146.3444, -34.2289, 141.0], "type": "Point"}, "properties": {"id": "GHCND:ASN00075006", "name": "BINYA POST OFFICE, AS"}, "type": "Feature"}, {"geometry": {"coordinates": [144.4661, -34.2175, 82.0], "type": "Point"}, "properties": {"id": "GHCND:ASN00075018", "name": "HAY CORRONG, AS"}, "type": "Feature"}, {"geometry": {"coordinates": [143.873, -35.1619, 64.0], "type": "Point"}, "properties": {"id": "GHCND:ASN00075020", "name": "MALLAN NIEMUR VALLEY, AS"}, "type": "Feature"}, {"geometry": {"coordinates": [145.5612, -34.442, 104.0], "type": "Point"}, "properties": {"id": "GHCND:ASN00075026", "name": "GROONGAL GROONGAL STATION, AS"}, "type": "Feature"}, {"geometry": {"coordinates": [144.8545, -34.5194, 93.3], "type": "Point"}, "properties": {"id": "GHCND:ASN00075031", "name": "HAY MILLER STREET, AS"}, "type": "Feature"}, {"geometry": {"coordinates": [146.3161, -33.6104, 192.0], "type": "Point"}, "properties": {"id": "GHCND:ASN00075050", "name": "NARADHAN URALBA, AS"}, "type": "Feature"}, {"geometry": {"coordinates": [145.5472, -34.4774, 107.0], "type": "Point"}, "properties": {"id": "GHCND:ASN00075064", "name": "GROONGAL GUNDALINE, AS"}, "type": "Feature"}, {"geometry": {"coordinates": [144.6529, -34.0965, 84.0], "type": "Point"}, "properties": {"id": "GHCND:ASN00075069", "name": "BOOLIGAL ULONGA, AS"}, "type": "Feature"}, {"geometry": {"coordinates": [144.816, -35.2119, 87.0], "type": "Point"}, "properties": {"id": "GHCND:ASN00075071", "name": "WANGANELLA GENERAL STORE, AS"}, "type": "Feature"}, {"geometry": {"coordinates": [145.0915, -34.9953, 99.0], "type": "Point"}, "properties": {"id": "GHCND:ASN00075075", "name": "CONARGO WILLURAH, AS"}, "type": "Feature"}, {"geometry": {"coordinates": [144.6966, -35.1721, 82.0], "type": "Point"}, "properties": {"id": "GHCND:ASN00075080", "name": "WANGANELLA ZARA, AS"}, "type": "Feature"}, {"geometry": {"coordinates": [145.3604, -33.5871, 112.0], "type": "Point"}, "properties": {"id": "GHCND:ASN00075096", "name": "HILLSTON COWL COWL, AS"}, "type": "Feature"}, {"geometry": {"coordinates": [142.0327, -36.4644, 111.3], "type": "Point"}, "properties": {"id": "GHCND:ASN00078010", "name": "DIMBOOLA, AS"}, "type": "Feature"}, {"geometry": {"coordinates": [142.0687, -36.6613, 128.0], "type": "Point"}, "properties": {"id": "GHCND:ASN00079023", "name": "HORSHAM POLKEMMET RD, AS"}, "type": "Feature"}, {"geometry": {"coordinates": [142.2991, -36.6722, 133.0], "type": "Point"}, "properties": {"id": "GHCND:ASN00079028", "name": "LONGERENONG, AS"}, "type": "Feature"}, {"geometry": {"coordinates": [146.7132, -36.3702, 580.0], "type": "Point"}, "properties": {"id": "GHCND:ASN00082001", "name": "BEECHWORTH COMPOSITE, AS"}, "type": "Feature"}, {"geometry": {"coordinates": [145.8225, -36.7872, 557.0], "type": "Point"}, "properties": {"id": "GHCND:ASN00082043", "name": "STRATHBOGIE NORTH, AS"}, "type": "Feature"}, {"geometry": {"coordinates": [149.9158, -37.5679, 15.2], "type": "Point"}, "properties": {"id": "GHCND:ASN00084016", "name": "GABO ISLAND LIGHTHOUSE, AS"}, "type": "Feature"}, {"geometry": {"coordinates": [146.4244, -39.1297, 95.0], "type": "Point"}, "properties": {"id": "GHCND:ASN00085096", "name": "WILSONS PROMONTORY LIGHTHOUSE, AS"}, "type": "Feature"}, {"geometry": {"coordinates": [144.97, -37.8075, 31.2], "type": "Point"}, "properties": {"id": "GHCND:ASN00086071", "name": "MELBOURNE REGIONAL OFFICE, AS"}, "type": "Feature"}, {"geometry": {"coordinates": [145.0667, -38.2358, 46.0], "type": "Point"}, "properties": {"id": "GHCND:ASN00086079", "name": "MORNINGTON, AS"}, "type": "Feature"}, {"geometry": {"coordinates": [145.1259, -37.5552, 198.0], "type": "Point"}, "properties": {"id": "GHCND:ASN00086131", "name": "YAN YEAN, AS"}, "type": "Feature"}, {"geometry": {"coordinates": [145.5644, -37.6886, 360.0], "type": "Point"}, "properties": {"id": "GHCND:ASN00086219", "name": "CORANDERRK BADGER WEIR, AS"}, "type": "Feature"}, {"geometry": {"coordinates": [144.2295, -37.6018, 508.7], "type": "Point"}, "properties": {"id": "GHCND:ASN00087006", "name": "BALLAN, AS"}, "type": "Feature"}, {"geometry": {"coordinates": [144.3069, -37.4701, 560.0], "type": "Point"}, "properties": {"id": "GHCND:ASN00087017", "name": "BLACKWOOD, AS"}, "type": "Feature"}, {"geometry": {"coordinates": [144.2078, -37.8233, 365.8], "type": "Point"}, "properties": {"id": "GHCND:ASN00087021", "name": "DURDIDWARRAH, AS"}, "type": "Feature"}, {"geometry": {"coordinates": [144.3281, -38.0657, 82.6], "type": "Point"}, "properties": {"id": "GHCND:ASN00087034", "name": "LOVELY BANKS RESERVOIR, AS"}, "type": "Feature"}, {"geometry": {"coordinates": [144.5569, -37.4155, 505.0], "type": "Point"}, "properties": {"id": "GHCND:ASN00087036", "name": "MACEDON FORESTRY, AS"}, "type": "Feature"}, {"geometry": {"coordinates": [143.94, -37.6719, 488.0], "type": "Point"}, "properties": {"id": "GHCND:ASN00087046", "name": "SCOTSBURN MOUNT BONINYONG, AS"}, "type": "Feature"}, {"geometry": {"coordinates": [144.7411, -37.5706, 200.0], "type": "Point"}, "properties": {"id": "GHCND:ASN00087061", "name": "SUNBURY SALESIAN COLLEGE, AS"}, "type": "Feature"}, {"geometry": {"coordinates": [145.7116, -37.1916, 221.0], "type": "Point"}, "properties": {"id": "GHCND:ASN00088001", "name": "ALEXANDRA POST OFFICE, AS"}, "type": "Feature"}, {"geometry": {"coordinates": [143.7776, -37.3049, 332.0], "type": "Point"}, "properties": {"id": "GHCND:ASN00088015", "name": "CLUNES, AS"}, "type": "Feature"}, {"geometry": {"coordinates": [144.1575, -37.3432, 612.0], "type": "Point"}, "properties": {"id": "GHCND:ASN00088020", "name": "DAYLESFORD, AS"}, "type": "Feature"}, {"geometry": {"coordinates": [144.3742, -37.1965, 470.0], "type": "Point"}, "properties": {"id": "GHCND:ASN00088042", "name": "MALMSBURY RESERVOIR, AS"}, "type": "Feature"}, {"geometry": {"coordinates": [143.732, -37.056, 249.3], "type": "Point"}, "properties": {"id": "GHCND:ASN00088043", "name": "MARYBOROUGH, AS"}, "type": "Feature"}, {"geometry": {"coordinates": [144.3232, -37.3894, 698.0], "type": "Point"}, "properties": {"id": "GHCND:ASN00088059", "name": "TRENTHAM POST OFFICE, AS"}, "type": "Feature"}, {"geometry": {"coordinates": [142.7253, -37.6901, 222.0], "type": "Point"}, "properties": {"id": "GHCND:ASN00089033", "name": "WICKLIFFE, AS"}, "type": "Feature"}, {"geometry": {"coordinates": [143.5128, -38.8556, 82.0], "type": "Point"}, "properties": {"id": "GHCND:ASN00090015", "name": "CAPE OTWAY LIGHTHOUSE, AS"}, "type": "Feature"}, {"geometry": {"coordinates": [141.3428, -37.435, 115.0], "type": "Point"}, "properties": {"id": "GHCND:ASN00090020", "name": "CASTERTON WARROCK, AS"}, "type": "Feature"}, {"geometry": {"coordinates": [141.6074, -38.3846, 55.0], "type": "Point"}, "properties": {"id": "GHCND:ASN00090070", "name": "PORTLAND, AS"}, "type": "Feature"}, {"geometry": {"coordinates": [147.1453, -43.4892, 55.0], "type": "Point"}, "properties": {"id": "GHCND:ASN00094010", "name": "CAPE BRUNY LIGHTHOUSE, AS"}, "type": "Feature"}, {"geometry": {"coordinates": [14.1331, 48.05, 383.0], "type": "Point"}, "properties": {"id": "GHCND:AU000005010", "name": "KREMSMUENSTER, AU"}, "type": "Feature"}, {"geometry": {"coordinates": [16.35, 48.2331, 199.0], "type": "Point"}, "properties": {"id": "GHCND:AU000005901", "name": "WIEN, AU"}, "type": "Feature"}, {"geometry": {"coordinates": [13.0, 47.8, 437.0], "type": "Point"}, "properties": {"id": "GHCND:AU000006306", "name": "SALZBURG, AU"}, "type": "Feature"}, {"geometry": {"coordinates": [11.4, 47.2667, 577.0], "type": "Point"}, "properties": {"id": "GHCND:AU000011801", "name": "INNSBRUCK, AU"}, "type": "Feature"}, {"geometry": {"coordinates": [4.35, 50.8, 104.0], "type": "Point"}, "properties": {"id": "GHCND:BE000006447", "name": "UCCLE, BE"}, "type": "Feature"}, {"geometry": {"coordinates": [26.117, 52.117, 142.0], "type": "Point"}, "properties": {"id": "GHCND:BOM00033019", "name": "PINSK, BO"}, "type": "Feature"}, {"geometry": {"coordinates": [-121.9167, 49.1667, 11.0], "type": "Point"}, "properties": {"id": "GHCND:CA001101530", "name": "CHILLIWACK, CA"}, "type": "Feature"}, {"geometry": {"coordinates": [-81.6167, 44.1667, 200.0], "type": "Point"}, "properties": {"id": "GHCND:CA006124127", "name": "KINCARDINE, CA"}, "type": "Feature"}, {"geometry": {"coordinates": [-79.2667, 43.0, 175.0], "type": "Point"}, "properties": {"id": "GHCND:CA006139445", "name": "WELLAND, CA"}, "type": "Feature"}, {"geometry": {"coordinates": [-82.9333, 42.3333, 188.0], "type": "Point"}, "properties": {"id": "GHCND:CA006139520", "name": "WINDSOR RIVERSIDE, CA"}, "type": "Feature"}, {"geometry": {"coordinates": [-80.7667, 43.1333, 282.0], "type": "Point"}, "properties": {"id": "GHCND:CA006149625", "name": "WOODSTOCK, CA"}, "type": "Feature"}, {"geometry": {"coordinates": [-77.4, 44.15, 76.0], "type": "Point"}, "properties": {"id": "GHCND:CA006150689", "name": "BELLEVILLE, CA"}, "type": "Feature"}, {"geometry": {"coordinates": [-79.4, 43.6667, 113.0], "type": "Point"}, "properties": {"id": "GHCND:CA006158350", "name": "TORONTO, CA"}, "type": "Feature"}, {"geometry": {"coordinates": [-72.5667, 45.1833, 206.0], "type": "Point"}, "properties": {"id": "GHCND:CA007020840", "name": "BROME, CA"}, "type": "Feature"}, {"geometry": {"coordinates": [-71.9833, 45.8167, 190.0], "type": "Point"}, "properties": {"id": "GHCND:CA007021954", "name": "DANVILLE, CA"}, "type": "Feature"}, {"geometry": {"coordinates": [-72.1333, 45.6333, 123.0], "type": "Point"}, "properties": {"id": "GHCND:CA007026465", "name": "RICHMOND, CA"}, "type": "Feature"}, {"geometry": {"coordinates": [81.133, 6.117, 20.0], "type": "Point"}, "properties": {"id": "GHCND:CE000043497", "name": "HAMBANTOTA"}, "type": "Feature"}, {"geometry": {"coordinates": [80.767, 6.967, 1880.0], "type": "Point"}, "properties": {"id": "GHCND:CE000434730", "name": "NUWARA ELIYA, CE"}, "type": "Feature"}, {"geometry": {"coordinates": [8.3167, 56.7667, 18.0], "type": "Point"}, "properties": {"id": "GHCND:DA000021100", "name": "VESTERVIG, DA"}, "type": "Feature"}, {"geometry": {"coordinates": [9.6167, 56.2831, 25.0], "type": "Point"}, "properties": {"id": "GHCND:DA000021430", "name": "GRONBAEK ALLINGSKOVGARD, DA"}, "type": "Feature"}, {"geometry": {"coordinates": [8.4, 55.45, 4.0], "type": "Point"}, "properties": {"id": "GHCND:DA000025140", "name": "NORDBY FANO, DA"}, "type": "Feature"}, {"geometry": {"coordinates": [12.5331, 55.6831, 9.0], "type": "Point"}, "properties": {"id": "GHCND:DA000030380", "name": "KOEBENHAVN LANDBOHOJSKOLEN 1, DA"}, "type": "Feature"}, {"geometry": {"coordinates": [-6.3192, 53.3639, 49.0], "type": "Point"}, "properties": {"id": "GHCND:EI000003969", "name": "DUBLIN PHOENIX PARK, EI"}, "type": "Feature"}, {"geometry": {"coordinates": [24.4694, 58.4194, 12.0], "type": "Point"}, "properties": {"id": "GHCND:ENE00175035", "name": "PARNU, EN"}, "type": "Feature"}, {"geometry": {"coordinates": [24.6028, 59.3981, 33.0], "type": "Point"}, "properties": {"id": "GHCND:ENE00175051", "name": "TALLINN, EN"}, "type": "Feature"}, {"geometry": {"coordinates": [1.3789, 43.6208, 151.0], "type": "Point"}, "properties": {"id": "GHCND:FR000007630", "name": "TOULOUSE BLAGNAC, FR"}, "type": "Feature"}, {"geometry": {"coordinates": [6.5019, 44.5656, 871.0], "type": "Point"}, "properties": {"id": "GHCND:FRE00104112", "name": "EMBRUN, FR"}, "type": "Feature"}, {"geometry": {"coordinates": [-1.9394, 49.7253, 6.0], "type": "Point"}, "properties": {"id": "GHCND:FRE00104937", "name": "PTE DE LA HAGUE, FR"}, "type": "Feature"}, {"geometry": {"coordinates": [13.3017, 52.4639, 51.0], "type": "Point"}, "properties": {"id": "GHCND:GM000003319", "name": "BERLIN DAHLEM, GM"}, "type": "Feature"}, {"geometry": {"coordinates": [10.9217, 49.8753, 240.0], "type": "Point"}, "properties": {"id": "GHCND:GM000004063", "name": "BAMBERG, GM"}, "type": "Feature"}, {"geometry": {"coordinates": [11.5025, 48.1667, 515.0], "type": "Point"}, "properties": {"id": "GHCND:GM000004199", "name": "MUNCHEN NYMPHENBURG, GM"}, "type": "Feature"}, {"geometry": {"coordinates": [11.5842, 50.9267, 155.0], "type": "Point"}, "properties": {"id": "GHCND:GM000004204", "name": "JENA STERNWARTE, GM"}, "type": "Feature"}, {"geometry": {"coordinates": [11.0117, 47.8017, 977.0], "type": "Point"}, "properties": {"id": "GHCND:GM000010962", "name": "HOHENPEISSENBERG, GM"}, "type": "Feature"}, {"geometry": {"coordinates": [12.4475, 51.3164, 138.0], "type": "Point"}, "properties": {"id": "GHCND:GME00125218", "name": "LEIPZIG HOLZHAUSEN, GM"}, "type": "Feature"}, {"geometry": {"coordinates": [12.9203, 48.8556, 313.0], "type": "Point"}, "properties": {"id": "GHCND:GME00126010", "name": "METTEN, GM"}, "type": "Feature"}, {"geometry": {"coordinates": [13.4167, 48.5817, 327.0], "type": "Point"}, "properties": {"id": "GHCND:GME00127186", "name": "PASSAU MAIERHOF, GM"}, "type": "Feature"}, {"geometry": {"coordinates": [8.58333, 50.03333, 112.2], "type": "Point"}, "properties": {"id": "GHCND:GMW00035032", "name": "RHEIN MAIN, GM"}, "type": "Feature"}, {"geometry": {"coordinates": [15.9781, 45.8167, 157.0], "type": "Point"}, "properties": {"id": "GHCND:HR000142360", "name": "ZAGREB GRIC, HR"}, "type": "Feature"}, {"geometry": {"coordinates": [15.3667, 44.55, 564.0], "type": "Point"}, "properties": {"id": "GHCND:HRE00105182", "name": "GOSPIC, HR"}, "type": "Feature"}, {"geometry": {"coordinates": [16.45, 43.1667, 20.0], "type": "Point"}, "properties": {"id": "GHCND:HRE00105189", "name": "HVAR, HR"}, "type": "Feature"}, {"geometry": {"coordinates": [5.2167, 53.3667, 7.0], "type": "Point"}, "properties": {"id": "GHCND:NLE00100496", "name": "WEST TERSCHELLING, NL"}, "type": "Feature"}, {"geometry": {"coordinates": [6.6, 53.1831, 1.0], "type": "Point"}, "properties": {"id": "GHCND:NLE00100499", "name": "GRONINGEN 1, NL"}, "type": "Feature"}, {"geometry": {"coordinates": [4.7, 52.3167, -3.0], "type": "Point"}, "properties": {"id": "GHCND:NLE00100503", "name": "HOOFDDORP, NL"}, "type": "Feature"}, {"geometry": {"coordinates": [3.8667, 51.6831, 7.0], "type": "Point"}, "properties": {"id": "GHCND:NLE00100506", "name": "KERKWERVE, NL"}, "type": "Feature"}, {"geometry": {"coordinates": [5.9667, 51.1831, 20.0], "type": "Point"}, "properties": {"id": "GHCND:NLE00100510", "name": "ROERMOND, NL"}, "type": "Feature"}, {"geometry": {"coordinates": [4.3, 52.1167, 0.0], "type": "Point"}, "properties": {"id": "GHCND:NLE00101965", "name": "SCHEVENINGEN, NL"}, "type": "Feature"}, {"geometry": {"coordinates": [5.6167, 52.25, 14.0], "type": "Point"}, "properties": {"id": "GHCND:NLE00101991", "name": "PUTTEN GLD, NL"}, "type": "Feature"}, {"geometry": {"coordinates": [5.6167, 51.4831, 18.0], "type": "Point"}, "properties": {"id": "GHCND:NLE00102079", "name": "HELMOND, NL"}, "type": "Feature"}, {"geometry": {"coordinates": [4.75, 52.9331, 0.0], "type": "Point"}, "properties": {"id": "GHCND:NLM00006235", "name": "DEN HELDER 1, NL"}, "type": "Feature"}, {"geometry": {"coordinates": [3.6, 51.45, 8.0], "type": "Point"}, "properties": {"id": "GHCND:NLM00006310", "name": "WEST SOUBURG, NL"}, "type": "Feature"}, {"geometry": {"coordinates": [8.0506, 58.0667, 9.0], "type": "Point"}, "properties": {"id": "GHCND:NOE00105483", "name": "OKSOEY FYR"}, "type": "Feature"}, {"geometry": {"coordinates": [16.12, 69.3233, 5.0], "type": "Point"}, "properties": {"id": "GHCND:NOE00157204", "name": "ANDENES, NO"}, "type": "Feature"}, {"geometry": {"coordinates": [21.35, 46.1331, 117.0], "type": "Point"}, "properties": {"id": "GHCND:ROE00100829", "name": "ARAD, RO"}, "type": "Feature"}, {"geometry": {"coordinates": [39.77, 43.58, 57.0], "type": "Point"}, "properties": {"id": "GHCND:RSM00037099", "name": "SOTCHI, RS"}, "type": "Feature"}, {"geometry": {"coordinates": [21.25, -34.083, 116.0], "type": "Point"}, "properties": {"id": "GHCND:SF000104560", "name": "RIVERSDALE, SF"}, "type": "Feature"}, {"geometry": {"coordinates": [19.467, -33.617, 270.0], "type": "Point"}, "properties": {"id": "GHCND:SF000227590", "name": "WORCESTER, SF"}, "type": "Feature"}, {"geometry": {"coordinates": [19.9, -33.8, 204.0], "type": "Point"}, "properties": {"id": "GHCND:SF000236780", "name": "ROBERTSON, SF"}, "type": "Feature"}, {"geometry": {"coordinates": [22.383, -34.017, 190.0], "type": "Point"}, "properties": {"id": "GHCND:SF000288380", "name": "GEORGE AIRPORT, SF"}, "type": "Feature"}, {"geometry": {"coordinates": [18.717, -33.467, 102.0], "type": "Point"}, "properties": {"id": "GHCND:SF000414170", "name": "MALMESBURY, SF"}, "type": "Feature"}, {"geometry": {"coordinates": [23.5, -33.283, 842.0], "type": "Point"}, "properties": {"id": "GHCND:SF000508870", "name": "WILLOWMORE, SF"}, "type": "Feature"}, {"geometry": {"coordinates": [26.5, -33.283, 642.0], "type": "Point"}, "properties": {"id": "GHCND:SF000570480", "name": "GRAHAMSTOWN, SF"}, "type": "Feature"}, {"geometry": {"coordinates": [26.633, -32.783, 455.0], "type": "Point"}, "properties": {"id": "GHCND:SF000782270", "name": "FORT BEAUFORT, SF"}, "type": "Feature"}, {"geometry": {"coordinates": [25.617, -32.167, 102.0], "type": "Point"}, "properties": {"id": "GHCND:SF000981900", "name": "CRADOCK, SF"}, "type": "Feature"}, {"geometry": {"coordinates": [21.517, -31.917, 1268.0], "type": "Point"}, "properties": {"id": "GHCND:SF001130250", "name": "FRASERBURG, SF"}, "type": "Feature"}, {"geometry": {"coordinates": [26.8, -31.117, 1603.0], "type": "Point"}, "properties": {"id": "GHCND:SF001485170", "name": "JAMESTOWN, SF"}, "type": "Feature"}, {"geometry": {"coordinates": [17.9, -29.667, 1007.0], "type": "Point"}, "properties": {"id": "GHCND:SF002146700", "name": "SPRINGBOK, SF"}, "type": "Feature"}, {"geometry": {"coordinates": [-14.917, 16.633, 7.0], "type": "Point"}, "properties": {"id": "GHCND:SG000061612", "name": "PODOR, SG"}, "type": "Feature"}, {"geometry": {"coordinates": [24.1439, 65.8269, 5.0], "type": "Point"}, "properties": {"id": "GHCND:SW000002196", "name": "HAPARANDA, SW"}, "type": "Feature"}, {"geometry": {"coordinates": [17.9331, 62.6331, 15.0], "type": "Point"}, "properties": {"id": "GHCND:SW000002361", "name": "HARNOSAND, SW"}, "type": "Feature"}, {"geometry": {"coordinates": [13.6994, 60.6814, 308.0], "type": "Point"}, "properties": {"id": "GHCND:SW000002410", "name": "MALUNG, SW"}, "type": "Feature"}, {"geometry": {"coordinates": [18.34, 57.66, 42.0], "type": "Point"}, "properties": {"id": "GHCND:SW000002590", "name": "VISBY FLYGPLATS, SW"}, "type": "Feature"}, {"geometry": {"coordinates": [15.5331, 58.4, 93.0], "type": "Point"}, "properties": {"id": "GHCND:SW000008525", "name": "LINKOEPING MALMSLAETT, SW"}, "type": "Feature"}, {"geometry": {"coordinates": [15.6167, 60.6167, 160.0], "type": "Point"}, "properties": {"id": "GHCND:SW000010537", "name": "FALUN, SW"}, "type": "Feature"}, {"geometry": {"coordinates": [13.4667, 59.35, 46.0], "type": "Point"}, "properties": {"id": "GHCND:SW000024180", "name": "KARLSTAD, SW"}, "type": "Feature"}, {"geometry": {"coordinates": [14.8, 56.8667, 166.0], "type": "Point"}, "properties": {"id": "GHCND:SWE00100003", "name": "VAEXJOE, SW"}, "type": "Feature"}, {"geometry": {"coordinates": [14.4831, 63.1831, 376.0], "type": "Point"}, "properties": {"id": "GHCND:SWE00100026", "name": "OESTERSUND FROESOEN, SW"}, "type": "Feature"}, {"geometry": {"coordinates": [12.82, 55.38, 5.0], "type": "Point"}, "properties": {"id": "GHCND:SWE00137494", "name": "FALSTERBO"}, "type": "Feature"}, {"geometry": {"coordinates": [13.2, 55.7, 73.0], "type": "Point"}, "properties": {"id": "GHCND:SWE00137568", "name": "LUND, SW"}, "type": "Feature"}, {"geometry": {"coordinates": [14.15, 56.33, 10.0], "type": "Point"}, "properties": {"id": "GHCND:SWE00137620", "name": "KRISTIANSTAD, SW"}, "type": "Feature"}, {"geometry": {"coordinates": [14.85, 56.18, 50.0], "type": "Point"}, "properties": {"id": "GHCND:SWE00137686", "name": "KARLSHAMN, SW"}, "type": "Feature"}, {"geometry": {"coordinates": [16.35, 56.69, 2.0], "type": "Point"}, "properties": {"id": "GHCND:SWE00137832", "name": "KALMAR D, SW"}, "type": "Feature"}, {"geometry": {"coordinates": [12.92, 56.67, 24.0], "type": "Point"}, "properties": {"id": "GHCND:SWE00137836", "name": "HALMSTAD, SW"}, "type": "Feature"}, {"geometry": {"coordinates": [13.95, 56.83, 155.0], "type": "Point"}, "properties": {"id": "GHCND:SWE00137876", "name": "LJUNGBY, SW"}, "type": "Feature"}, {"geometry": {"coordinates": [18.1664, 56.92, 38.0], "type": "Point"}, "properties": {"id": "GHCND:SWE00137910", "name": "HOBURG, SW"}, "type": "Feature"}, {"geometry": {"coordinates": [12.27, 57.11, 20.0], "type": "Point"}, "properties": {"id": "GHCND:SWE00137974", "name": "VARBERG, SW"}, "type": "Feature"}, {"geometry": {"coordinates": [17.1, 57.37, 4.0], "type": "Point"}, "properties": {"id": "GHCND:SWE00138058", "name": "OLANDS NORRA UDDE"}, "type": "Feature"}, {"geometry": {"coordinates": [11.61, 57.63, 12.0], "type": "Point"}, "properties": {"id": "GHCND:SWE00138166", "name": "VINGA, SW"}, "type": "Feature"}, {"geometry": {"coordinates": [14.1831, 57.7667, 98.0], "type": "Point"}, "properties": {"id": "GHCND:SWE00138232", "name": "JONKOPING, SW"}, "type": "Feature"}, {"geometry": {"coordinates": [12.36, 58.36, 50.0], "type": "Point"}, "properties": {"id": "GHCND:SWE00138464", "name": "VANERSBORG, SW"}, "type": "Feature"}, {"geometry": {"coordinates": [13.45, 58.4, 115.0], "type": "Point"}, "properties": {"id": "GHCND:SWE00138488", "name": "SKARA 1, SW"}, "type": "Feature"}, {"geometry": {"coordinates": [17.87, 58.74, 18.0], "type": "Point"}, "properties": {"id": "GHCND:SWE00138618", "name": "LANDSORT, SW"}, "type": "Feature"}, {"geometry": {"coordinates": [19.5056, 59.4442, 12.0], "type": "Point"}, "properties": {"id": "GHCND:SWE00138962", "name": "SVENSKA HOGARNA, SW"}, "type": "Feature"}, {"geometry": {"coordinates": [15.03, 59.51, 97.0], "type": "Point"}, "properties": {"id": "GHCND:SWE00138978", "name": "NORA D, SW"}, "type": "Feature"}, {"geometry": {"coordinates": [17.63, 59.86, 13.0], "type": "Point"}, "properties": {"id": "GHCND:SWE00139148", "name": "UPPSALA AUT, SW"}, "type": "Feature"}, {"geometry": {"coordinates": [13.13, 61.71, 425.0], "type": "Point"}, "properties": {"id": "GHCND:SWE00139668", "name": "SARNA, SW"}, "type": "Feature"}, {"geometry": {"coordinates": [16.55, 61.79, 70.0], "type": "Point"}, "properties": {"id": "GHCND:SWE00139680", "name": "DELSBO, SW"}, "type": "Feature"}, {"geometry": {"coordinates": [14.1903, 62.0192, 432.0], "type": "Point"}, "properties": {"id": "GHCND:SWE00139720", "name": "SVEG, SW"}, "type": "Feature"}, {"geometry": {"coordinates": [21.49, 65.3197, 9.0], "type": "Point"}, "properties": {"id": "GHCND:SWE00140492", "name": "PITEA, SW"}, "type": "Feature"}, {"geometry": {"coordinates": [19.64, 66.6297, 254.0], "type": "Point"}, "properties": {"id": "GHCND:SWE00140746", "name": "JOKKMOKK, SW"}, "type": "Feature"}, {"geometry": {"coordinates": [22.4503, 68.4419, 330.0], "type": "Point"}, "properties": {"id": "GHCND:SWM00002080", "name": "KARESUANDO, SW"}, "type": "Feature"}, {"geometry": {"coordinates": [18.05, 59.35, 44.0], "type": "Point"}, "properties": {"id": "GHCND:SWM00002485", "name": "STOCKHOLM, SW"}, "type": "Feature"}, {"geometry": {"coordinates": [7.1667, 45.8667, 2472.0], "type": "Point"}, "properties": {"id": "GHCND:SZ000006717", "name": "COL DU GRAND ST BERNARD, IT"}, "type": "Feature"}, {"geometry": {"coordinates": [-6.32, 58.33, 9.0], "type": "Point"}, "properties": {"id": "GHCND:UK000003026", "name": "STORNOWAY AIRPORT, UK"}, "type": "Feature"}, {"geometry": {"coordinates": [-6.65, 54.35, 62.0], "type": "Point"}, "properties": {"id": "GHCND:UK000047811", "name": "ARMAGH, UK"}, "type": "Feature"}, {"geometry": {"coordinates": [-1.2667, 51.7667, 63.0], "type": "Point"}, "properties": {"id": "GHCND:UK000056225", "name": "OXFORD, UK"}, "type": "Feature"}, {"geometry": {"coordinates": [-1.9131, 53.2567, 307.0], "type": "Point"}, "properties": {"id": "GHCND:UKE00105905", "name": "BUXTON, UK"}, "type": "Feature"}, {"geometry": {"coordinates": [-1.5842, 54.7678, 102.0], "type": "Point"}, "properties": {"id": "GHCND:UKE00156852", "name": "DURHAM, UK"}, "type": "Feature"}, {"geometry": {"coordinates": [32.567, 46.633, 54.0], "type": "Point"}, "properties": {"id": "GHCND:UPM00033902", "name": "KHERSON, UP"}, "type": "Feature"}, {"geometry": {"coordinates": [-93.0487, 34.5129, 190.8], "type": "Point"}, "properties": {"id": "GHCND:USC00033466", "name": "HOT SPRINGS 1 NNE, AR US"}, "type": "Feature"}, {"geometry": {"coordinates": [-93.5878, 34.5408, 212.4], "type": "Point"}, "properties": {"id": "GHCND:USC00034988", "name": "MOUNT IDA, AR US"}, "type": "Feature"}, {"geometry": {"coordinates": [-90.9682, 36.2641, 96.0], "type": "Point"}, "properties": {"id": "GHCND:USC00035820", "name": "POCAHONTAS 1, AR US"}, "type": "Feature"}, {"geometry": {"coordinates": [-120.1574, 41.8715, 1444.4], "type": "Point"}, "properties": {"id": "GHCND:USC00043157", "name": "FORT BIDWELL, CA US"}, "type": "Feature"}, {"geometry": {"coordinates": [-72.71667, 41.55, 112.5], "type": "Point"}, "properties": {"id": "GHCND:USC00064767", "name": "MIDDLETOWN 4 W, CT US"}, "type": "Feature"}, {"geometry": {"coordinates": [-84.2461, 32.0306, 121.0], "type": "Point"}, "properties": {"id": "GHCND:USC00090253", "name": "AMERICUS, GA US"}, "type": "Feature"}, {"geometry": {"coordinates": [-84.0207, 34.5069, 445.0], "type": "Point"}, "properties": {"id": "GHCND:USC00092475", "name": "DAHLONEGA 4 WSW, GA US"}, "type": "Feature"}, {"geometry": {"coordinates": [-90.5647, 41.518, 173.1], "type": "Point"}, "properties": {"id": "GHCND:USC00117391", "name": "ROCK ISLAND LOCK AND DAM 15, IL US"}, "type": "Feature"}, {"geometry": {"coordinates": [-91.878, 42.527, 307.8], "type": "Point"}, "properties": {"id": "GHCND:USC00134049", "name": "INDEPENDENCE NUMBER 1, IA US"}, "type": "Feature"}, {"geometry": {"coordinates": [-95.2513, 38.9583, 320.0], "type": "Point"}, "properties": {"id": "GHCND:USC00144559", "name": "LAWRENCE, KS US"}, "type": "Feature"}, {"geometry": {"coordinates": [-96.3258, 44.0138, 519.7], "type": "Point"}, "properties": {"id": "GHCND:USC00216565", "name": "PIPESTONE, MN US"}, "type": "Feature"}, {"geometry": {"coordinates": [-111.5772, 46.9956, 1402.1], "type": "Point"}, "properties": {"id": "GHCND:USC00241557", "name": "CASCADE 20 SSE, MT US"}, "type": "Feature"}, {"geometry": {"coordinates": [-98.0283, 41.1222, 518.2], "type": "Point"}, "properties": {"id": "GHCND:USC00251560", "name": "CENTRAL CITY, NE US"}, "type": "Feature"}, {"geometry": {"coordinates": [-74.0055, 40.4633, 3.0], "type": "Point"}, "properties": {"id": "GHCND:USC00287865", "name": "SANDY HOOK, NJ US"}, "type": "Feature"}, {"geometry": {"coordinates": [-76.5516, 36.0164, 3.0], "type": "Point"}, "properties": {"id": "GHCND:USC00312635", "name": "EDENTON, NC US"}, "type": "Feature"}, {"geometry": {"coordinates": [-78.85883, 35.05909, 29.3], "type": "Point"}, "properties": {"id": "GHCND:USC00313017", "name": "FAYETTEVILLE PWC, NC US"}, "type": "Feature"}, {"geometry": {"coordinates": [-83.39294, 35.18038, 647.7], "type": "Point"}, "properties": {"id": "GHCND:USC00313228", "name": "FRANKLIN, NC US"}, "type": "Feature"}, {"geometry": {"coordinates": [-77.3984, 35.64, 9.8], "type": "Point"}, "properties": {"id": "GHCND:USC00313638", "name": "GREENVILLE, NC US"}, "type": "Feature"}, {"geometry": {"coordinates": [-83.19822, 35.05646, 1173.5], "type": "Point"}, "properties": {"id": "GHCND:USC00314055", "name": "HIGHLANDS, NC US"}, "type": "Feature"}, {"geometry": {"coordinates": [-81.5374, 35.9147, 352.0], "type": "Point"}, "properties": {"id": "GHCND:USC00314938", "name": "LENOIR, NC US"}, "type": "Feature"}, {"geometry": {"coordinates": [-83.9684, 35.0714, 487.7], "type": "Point"}, "properties": {"id": "GHCND:USC00316001", "name": "MURPHY 4 ESE, NC US"}, "type": "Feature"}, {"geometry": {"coordinates": [-77.53857, 35.88413, 10.7], "type": "Point"}, "properties": {"id": "GHCND:USC00318500", "name": "TARBORO 1 S, NC US"}, "type": "Feature"}, {"geometry": {"coordinates": [-83.53333, 41.65, 182.9], "type": "Point"}, "properties": {"id": "GHCND:USC00338366", "name": "TOLEDO BLADE, OH US"}, "type": "Feature"}, {"geometry": {"coordinates": [-77.18938, 40.22571, 131.1], "type": "Point"}, "properties": {"id": "GHCND:USC00361920", "name": "CARLISLE WATER PLANT, PA US"}, "type": "Feature"}, {"geometry": {"coordinates": [-80.65652, 34.24291, 42.7], "type": "Point"}, "properties": {"id": "GHCND:USC00381310", "name": "CAMDEN 3 W, SC US"}, "type": "Feature"}, {"geometry": {"coordinates": [-99.6222, 45.76542, 570.3], "type": "Point"}, "properties": {"id": "GHCND:USC00392797", "name": "EUREKA, SD US"}, "type": "Feature"}, {"geometry": {"coordinates": [-100.11023, 30.82728, 661.1], "type": "Point"}, "properties": {"id": "GHCND:USC00413257", "name": "FORT MCKAVETT, TX US"}, "type": "Feature"}, {"geometry": {"coordinates": [-97.2, 31.46667, 201.2], "type": "Point"}, "properties": {"id": "GHCND:USC00414122", "name": "HEWITT, TX US"}, "type": "Feature"}, {"geometry": {"coordinates": [-94.0097, 30.9152, 62.5], "type": "Point"}, "properties": {"id": "GHCND:USC00414563", "name": "JASPER, TX US"}, "type": "Feature"}, {"geometry": {"coordinates": [-122.651, 45.6778, 64.0], "type": "Point"}, "properties": {"id": "GHCND:USC00458773", "name": "VANCOUVER 4 NNE, WA US"}, "type": "Feature"}, {"geometry": {"coordinates": [-80.4042, 37.8566, 701.0], "type": "Point"}, "properties": {"id": "GHCND:USC00465224", "name": "LEWISBURG 3 N, WV US"}, "type": "Feature"}, {"geometry": {"coordinates": [-78.77106, 39.33898, 219.5], "type": "Point"}, "properties": {"id": "GHCND:USC00467730", "name": "ROMNEY 1 SW, WV US"}, "type": "Feature"}, {"geometry": {"coordinates": [-74.42361, 39.37778, 3.0], "type": "Point"}, "properties": {"id": "GHCND:USW00013724", "name": "ATLANTIC CITY MARINA, NJ US"}, "type": "Feature"}, {"geometry": {"coordinates": [-79.9207, 39.64981, 378.0], "type": "Point"}, "properties": {"id": "GHCND:USW00013736", "name": "MORGANTOWN MUNICIPAL AIRPORT, WV US"}, "type": "Feature"}, {"geometry": {"coordinates": [-82.5568, 35.5954, 682.1], "type": "Point"}, "properties": {"id": "GHCND:USW00013872", "name": "ASHEVILLE, NC US"}, "type": "Feature"}, {"geometry": {"coordinates": [-87.3795, 46.5458, 186.8], "type": "Point"}, "properties": {"id": "GHCND:USW00014838", "name": "MARQUETTE, MI US"}, "type": "Feature"}, {"geometry": {"coordinates": [-121.6081, 36.6636, 22.6], "type": "Point"}, "properties": {"id": "GHCND:USW00023233", "name": "SALINAS AIRPORT, CA US"}, "type": "Feature"}, {"geometry": {"coordinates": [-121.4183, 38.5552, 11.6], "type": "Point"}, "properties": {"id": "GHCND:USW00023271", "name": "SACRAMENTO 5 ESE, CA US"}, "type": "Feature"}, {"geometry": {"coordinates": [-117.808, 40.9017, 1309.4], "type": "Point"}, "properties": {"id": "GHCND:USW00024128", "name": "WINNEMUCCA AIRPORT, NV US"}, "type": "Feature"}, {"geometry": {"coordinates": [-91.7556, 33.6361, 88.4], "type": "Point"}, "properties": {"id": "GHCND:USW00053919", "name": "MONTICELLO MUNICIPAL AIRPORT, AR US"}, "type": "Feature"}, {"geometry": {"coordinates": [-84.6058, 38.0408, 298.7], "type": "Point"}, "properties": {"id": "GHCND:USW00093820", "name": "LEXINGTON BLUEGRASS AIRPORT, KY US"}, "type": "Feature"}, {"geometry": {"coordinates": [-87.30889, 39.45194, 175.3], "type": "Point"}, "properties": {"id": "GHCND:USW00093823", "name": "TERRE HAUTE HULMAN REGIONAL AIRPORT, IN US"}, "type": "Feature"}, {"geometry": {"coordinates": [-73.96925, 40.77898, 42.7], "type": "Point"}, "properties": {"id": "GHCND:USW00094728", "name": "NY CITY CENTRAL PARK, NY US"}, "type": "Feature"}], "type": "FeatureCollection"}